City_ID,City,Lat,Lng,Max Temp,Humidity,Cloudiness,Wind Speed,Country,Date
0,hobart,-42.8794,147.3294,67.26,56,20,12.66,AU,1680571803
1,vaini,-21.2,-175.2,84.36,70,20,8.05,TO,1680571804
2,rikitea,-23.1203,-134.9692,79.68,83,98,14.65,PF,1680571828
3,chiriqui grande,8.95,-82.1167,77.09,88,99,2.17,PA,1680571838
4,butaritari,3.0707,172.7902,81.84,81,80,18.14,KI,1680571840
5,kedougou,12.5579,-12.1743,86.13,25,5,3.47,SN,1680571840
6,pyapon,16.2833,95.6833,84.34,59,4,10.45,MM,1680571840
7,chokurdakh,70.6333,147.9167,9.73,90,20,7.43,RU,1680571841
8,ushuaia,-54.8,-68.3,44.26,87,75,11.5,AR,1680571841
9,nanortalik,60.1432,-45.2371,30.72,86,96,1.43,GL,1680571841
10,broken hill,-31.95,141.4333,73.67,22,0,5.3,AU,1680571843
11,bambous virieux,-20.3428,57.7575,75.45,94,75,6.91,MU,1680571844
12,limon,10.0,-83.0333,78.06,81,97,1.72,CR,1680571844
13,albany,42.6001,-73.9662,55.81,57,100,4.99,US,1680571804
14,busselton,-33.65,115.3333,68.31,53,38,9.84,AU,1680571845
15,lebedinyy,58.5167,125.5167,18.63,93,100,19.75,RU,1680571845
16,constitucion,-35.3333,-72.4167,57.38,68,3,11.7,CL,1680571845
17,bredasdorp,-34.5322,20.0403,59.09,85,100,2.08,ZA,1680571845
18,petropavlovsk-kamchatskiy,53.0452,158.6483,37.99,45,0,13.42,RU,1680571846
19,tura,25.5198,90.2201,72.18,68,7,5.95,IN,1680571846
20,airai,-8.9266,125.4092,72.57,58,85,2.24,TL,1680571846
21,east london,-33.0153,27.9116,66.45,69,88,18.32,ZA,1680571847
22,bengkulu,-3.8004,102.2655,79.5,80,83,2.37,ID,1680571847
23,jamestown,42.097,-79.2353,49.64,61,100,6.91,US,1680571705
24,kapaa,22.0752,-159.319,79.12,85,100,9.22,US,1680571847
25,bambui,-20.0064,-45.9769,65.48,93,100,0.18,BR,1680571847
26,la ronge,55.1001,-105.2842,21.45,42,20,5.75,CA,1680571847
27,avarua,-21.2078,-159.775,82.45,61,75,10.36,CK,1680571705
28,puerto ayora,-0.7393,-90.3518,81.55,92,19,5.01,EC,1680571848
29,atuona,-9.8,-139.0333,81.14,76,61,13.06,PF,1680571848
30,portland,45.5234,-122.6762,49.84,77,75,9.22,US,1680571685
31,upata,8.0086,-62.3989,74.19,73,16,7.61,VE,1680571849
32,cherskiy,68.75,161.3,6.76,72,99,16.51,RU,1680571849
33,gidole,5.65,37.3667,55.24,87,24,3.11,ET,1680571849
34,mataura,-46.1927,168.8643,58.48,50,49,4.45,NZ,1680571850
35,naze,28.3667,129.4833,67.12,61,86,21.03,JP,1680571850
36,shimoda,34.6667,138.95,60.1,53,0,7.14,JP,1680571850
37,barrow,71.2906,-156.7887,3.22,78,100,13.8,US,1680571850
38,kindu,-2.95,25.95,68.77,99,99,2.01,CD,1680571850
39,hirara,24.8,125.2833,76.86,53,40,19.57,JP,1680571851
40,namatanai,-3.6667,152.4333,84.92,68,100,1.41,PG,1680571851
41,baraki barak,33.9675,68.9486,44.19,72,0,1.19,AF,1680571570
42,akdepe,42.0551,59.3788,48.29,74,100,3.89,TM,1680571851
43,aasiaat,68.7098,-52.8699,-12.93,100,92,3.74,GL,1680571851
44,aklavik,68.2191,-135.0107,17.53,91,100,9.62,CA,1680571852
45,cape town,-33.9258,18.4232,60.12,86,0,1.14,ZA,1680571807
46,kurilsk,45.2333,147.8833,40.19,51,62,5.55,RU,1680571852
47,severo-kurilsk,50.6789,156.125,33.98,82,60,11.34,RU,1680571852
48,coquimbo,-29.9533,-71.3436,60.53,100,0,6.91,CL,1680571852
49,hermanus,-34.4187,19.2345,53.8,81,100,4.36,ZA,1680571853
50,lahij,13.1667,44.5833,75.13,86,51,4.61,YE,1680571853
51,saint-augustin,51.226,-58.6502,29.01,80,61,4.56,CA,1680571853
52,bethel,41.3712,-73.414,49.86,73,13,7.18,US,1680571853
53,praia da vitoria,38.7333,-27.0667,56.75,94,0,8.37,PT,1680571854
54,dingle,10.9995,122.6711,86.86,57,48,10.18,PH,1680571854
55,kemijarvi,66.7131,27.4306,11.16,98,81,5.23,FI,1680571855
56,dunedin,-45.8742,170.5036,66.79,51,47,8.01,NZ,1680571853
57,huangnihe,43.5583,128.0239,47.89,38,100,6.38,CN,1680571855
58,cidreira,-30.1811,-50.2056,71.92,79,18,13.71,BR,1680571855
59,punta arenas,-53.15,-70.9167,44.71,70,20,8.05,CL,1680571824
60,maldonado,-34.6667,-54.9167,65.59,88,97,1.19,UY,1680571856
61,tuatapere,-46.1333,167.6833,63.39,55,63,3.94,NZ,1680571856
62,mocuba,-16.8392,36.9856,65.64,97,68,2.37,MZ,1680571856
63,georgetown,5.4112,100.3354,82.33,88,20,3.44,MY,1680571577
64,ponta do sol,32.6667,-17.1,63.23,58,14,12.12,PT,1680571856
65,san patricio,28.017,-97.5169,79.54,79,100,17.16,US,1680571856
66,khatanga,71.9667,102.5,-21.42,93,100,12.26,RU,1680571856
67,knysna,-34.0363,23.0471,59.07,87,99,4.41,ZA,1680571857
68,cayenne,4.9333,-52.3333,73.44,94,40,0.0,GF,1680571857
69,kodiak,57.79,-152.4072,35.11,93,100,11.5,US,1680571857
70,penalva,-3.2942,-45.1736,72.57,99,94,2.1,BR,1680571857
71,kuytun,54.3419,101.5036,28.0,66,100,9.13,RU,1680571857
72,chenzhou,25.8,113.0333,76.08,78,100,8.61,CN,1680571858
73,mount isa,-20.7333,139.5,87.57,18,86,9.22,AU,1680571858
74,los llanos de aridane,28.6585,-17.9182,64.15,89,75,16.11,ES,1680571859
75,yenangyaung,20.4667,94.8833,81.46,49,6,3.2,MM,1680571859
76,mahebourg,-20.4081,57.7,75.49,94,75,6.91,MU,1680571859
77,vredendal,-31.6683,18.5012,60.8,81,6,3.11,ZA,1680571859
78,tuktoyaktuk,69.4541,-133.0374,-2.2,78,20,5.75,CA,1680571859
79,comodoro rivadavia,-45.8667,-67.5,62.46,36,0,3.44,AR,1680571860
80,volovo,48.5246,23.5056,30.15,76,99,7.67,UA,1680571860
81,saint-philippe,-21.3585,55.7679,74.79,79,97,5.99,RE,1680571860
82,odweyne,9.4092,45.064,72.54,70,1,6.62,SO,1680571860
83,ribeira grande,38.5167,-28.7,54.77,82,100,8.01,PT,1680571861
84,lagoa,39.05,-27.9833,58.26,69,100,10.11,PT,1680571861
85,tiksi,71.6872,128.8694,18.52,85,100,5.23,RU,1680571861
86,iqaluit,63.7506,-68.5145,1.13,71,75,19.57,CA,1680571862
87,havre-saint-pierre,50.2334,-63.5986,28.4,74,100,10.36,CA,1680571862
88,pemangkat,1.1667,108.9667,81.57,74,78,5.3,ID,1680571863
89,hilo,19.7297,-155.09,78.53,72,100,10.36,US,1680571760
90,port elizabeth,-33.918,25.5701,64.31,81,67,8.01,ZA,1680571863
91,leningradskiy,69.3833,178.4167,-6.18,87,6,4.09,RU,1680571864
92,yatou,37.15,122.3833,50.29,95,100,15.55,CN,1680571865
93,sibolga,1.7427,98.7792,81.55,71,91,0.38,ID,1680571865
94,sobolevo,54.4299,31.8996,32.85,99,100,6.46,RU,1680571866
95,kihei,20.785,-156.4656,80.62,73,40,14.97,US,1680571867
96,beringovskiy,63.05,179.3167,8.55,90,100,13.42,RU,1680571868
97,mar del plata,-38.0023,-57.5575,61.09,86,35,0.0,AR,1680571625
98,quatre cocos,-20.2078,57.7625,75.31,84,97,7.09,MU,1680571710
99,bathsheba,13.2167,-59.5167,79.41,73,40,16.11,BB,1680571869
100,hohhot,40.8106,111.6522,43.09,75,0,13.42,CN,1680571869
101,lanxi,29.2195,119.477,63.61,88,99,2.42,CN,1680571870
102,laguna,38.421,-121.4238,59.09,29,0,13.8,US,1680571870
103,sorland,67.667,12.6934,37.26,89,98,9.31,NO,1680571871
104,dikson,73.5069,80.5464,-6.86,97,100,11.79,RU,1680571872
105,mount gambier,-37.8333,140.7667,68.05,51,100,4.03,AU,1680571873
106,sao filipe,14.8961,-24.4956,74.91,70,73,8.1,CV,1680571874
107,vadso,70.0744,29.7487,30.36,64,100,17.27,NO,1680571875
108,huarmey,-10.0681,-78.1522,78.04,81,100,7.34,PE,1680571875
109,san cristobal,7.7669,-72.225,73.58,81,81,1.83,VE,1680571876
110,havoysund,70.9963,24.6622,35.83,83,95,21.61,NO,1680571877
111,ilfracombe,51.2093,-4.1134,44.55,88,26,1.99,GB,1680571878
112,tasiilaq,65.6145,-37.6368,24.96,90,100,0.16,GL,1680571878
113,channel-port aux basques,47.5702,-59.1367,29.61,77,100,11.83,CA,1680571878
114,saldanha,-33.0117,17.9442,53.65,93,100,7.38,ZA,1680571880
115,inirida,3.8653,-67.9239,75.6,81,14,2.53,CO,1680571881
116,zhigansk,66.7697,123.3711,16.86,92,100,4.38,RU,1680571882
117,longyearbyen,78.2186,15.6401,4.84,66,20,13.8,SJ,1680571882
118,carnarvon,-24.8667,113.6333,76.3,69,55,12.39,AU,1680571883
119,bereda,43.2686,-7.5406,42.15,100,100,4.36,ES,1680571883
120,xinqing,48.2333,129.5,38.66,21,2,13.42,CN,1680571883
121,ouadda,8.0777,22.4007,70.81,21,92,3.91,CF,1680571884
122,narsaq,60.9167,-46.05,43.02,76,97,5.88,GL,1680571884
123,qaanaaq,77.484,-69.3632,-10.46,62,0,6.73,GL,1680571885
124,rawson,-43.3002,-65.1023,59.72,64,1,12.35,AR,1680571885
125,cabra,37.4725,-4.4421,54.5,34,100,4.32,ES,1680571885
126,provideniya,64.3833,-173.3,10.51,61,75,13.42,RU,1680571886
127,torbay,47.6666,-52.7314,30.58,83,75,16.11,CA,1680571886
128,geraldton,-28.7667,114.6,73.81,64,75,17.27,AU,1680571886
129,esperance,-33.8667,121.9,68.09,73,100,10.67,AU,1680571887
130,kavieng,-2.5744,150.7967,83.23,72,17,3.02,PG,1680571887
131,bluff,-46.6,168.3333,58.8,71,75,12.1,NZ,1680571887
132,taseyevo,57.2169,94.8978,31.51,93,100,11.54,RU,1680571887
133,rosaryville,38.7568,-76.8097,66.49,74,0,10.36,US,1680571888
134,dukat,62.55,155.55,9.57,67,0,5.53,RU,1680571888
135,bone,51.9669,12.1396,33.3,85,13,4.97,DE,1680571888
136,clyde river,70.4692,-68.5914,-10.97,77,0,8.05,CA,1680571889
137,avera,33.194,-82.5271,62.11,85,100,3.87,US,1680571890
138,kodinsk,58.6881,99.1844,31.59,78,100,9.6,RU,1680571890
139,savannah bight,16.45,-85.85,79.66,80,34,28.27,HN,1680571891
140,hithadhoo,-0.6,73.0833,82.36,69,32,8.34,MV,1680571891
141,onega,63.9061,38.1404,20.46,95,100,4.41,RU,1680571892
142,coracora,-15.0333,-73.7833,51.48,93,98,2.75,PE,1680571893
143,hami,42.8,93.45,32.49,77,100,5.59,CN,1680571894
144,mingguang,32.7802,117.9638,57.47,97,100,11.14,CN,1680571894
145,saint leonard,47.173,-67.9247,35.92,72,100,10.74,CA,1680571894
146,rio branco,-9.9747,-67.81,75.81,94,20,2.3,BR,1680571895
147,upernavik,72.7868,-56.1549,-21.08,99,37,4.34,GL,1680571895
148,okha,53.5739,142.9478,29.46,94,100,19.71,RU,1680571895
149,lebu,-37.6167,-73.65,54.75,76,1,16.73,CL,1680571896
150,shingu,33.7333,135.9833,62.87,65,82,4.68,JP,1680571896
151,chuy,-33.6971,-53.4616,62.76,84,100,3.47,UY,1680571897
152,grand gaube,-20.0064,57.6608,75.6,80,90,1.99,MU,1680571897
153,lardos,36.0942,28.0157,66.94,83,100,24.27,GR,1680571898
154,erzurum,40.0,41.5,31.68,91,100,3.67,TR,1680571898
155,langsa,4.4683,97.9683,83.91,68,49,3.13,ID,1680571898
156,mbandaka,0.0487,18.2603,71.1,99,100,5.14,CD,1680571899
157,chapeco,-27.0964,-52.6183,62.01,71,1,1.54,BR,1680571899
158,auki,-8.7676,160.7034,87.4,62,99,1.14,SB,1680571899
159,salalah,17.0151,54.0924,84.29,21,20,9.22,OM,1680571900
160,aksay,47.26,39.87,50.25,89,90,7.0,RU,1680571900
161,sitka,57.0531,-135.33,44.49,57,0,5.75,US,1680571901
162,florianopolis,-27.6146,-48.5012,70.83,78,0,2.3,BR,1680571833
163,amapa,1.0,-52.0,70.03,94,57,2.62,BR,1680571902
164,yar-sale,66.8333,70.8333,4.21,82,96,15.95,RU,1680571902
165,alofi,-19.0595,-169.9187,82.29,78,38,16.11,NU,1680571903
166,aden,12.7794,45.0367,82.08,81,35,14.32,YE,1680571857
167,pisco,-13.7,-76.2167,73.45,94,0,11.5,PE,1680571904
168,hambantota,6.1241,81.1185,75.54,100,40,0.0,LK,1680571904
169,rafaela,-31.2503,-61.4867,64.0,76,100,4.0,AR,1680571905
170,vorontsovka,50.6132,40.3549,46.65,91,96,8.16,RU,1680571905
171,pangnirtung,66.1451,-65.7125,-1.93,67,23,7.45,CA,1680571905
172,yellowknife,62.456,-114.3525,16.32,73,75,3.44,CA,1680571684
173,maragheh,37.3917,46.2398,43.48,76,3,0.56,IR,1680571906
174,paamiut,61.994,-49.6678,33.37,75,100,4.25,GL,1680571906
175,trelew,-43.249,-65.3051,59.07,59,3,8.63,AR,1680571906
176,half moon bay,37.4636,-122.4286,54.23,61,0,32.21,US,1680571651
177,isangel,-19.55,169.2667,86.11,79,75,9.22,VU,1680571907
178,ntchisi,-13.5278,33.9149,55.78,96,40,2.3,MW,1680571907
179,alugan,12.2188,125.4808,79.81,81,87,13.58,PH,1680571907
180,slave lake,55.2834,-114.769,33.78,60,0,4.61,CA,1680571814
181,davila,18.4726,120.5763,85.98,64,8,5.48,PH,1680571907
182,san ramon,37.7799,-121.978,53.73,55,20,24.16,US,1680571908
183,ilulissat,69.2167,-51.1,-16.1,98,26,4.72,GL,1680571908
184,paracuru,-3.41,-39.0306,77.11,91,99,1.19,BR,1680571908
185,warrington,53.3925,-2.5802,43.81,80,10,10.36,GB,1680571838
186,oriximina,-1.7656,-55.8661,74.07,93,92,2.06,BR,1680571908
187,gizo,-8.103,156.8419,84.72,70,100,2.35,SB,1680571908
188,zhangye,38.9342,100.4517,35.94,59,100,24.32,CN,1680571909
189,nikolskoye,59.7035,30.7861,30.09,97,100,6.58,RU,1680571909
190,deputatskiy,69.3,139.9,11.53,91,69,3.65,RU,1680571909
191,eureka,40.8021,-124.1637,47.19,81,35,11.97,US,1680571878
192,ixtapa,20.7,-105.2,76.23,73,40,5.75,MX,1680571909
193,vila franca do campo,37.7167,-25.4333,55.81,78,66,5.21,PT,1680571909
194,husavik,66.0449,-17.3389,36.28,96,100,10.51,IS,1680571910
195,manavalakurichi,8.1333,77.3,79.2,81,71,8.16,IN,1680571910
196,flinders,-34.5833,150.8552,78.19,60,74,3.0,AU,1680571910
197,port alfred,-33.5906,26.891,63.18,84,99,7.0,ZA,1680571910
198,makasar,-5.14,119.4221,82.45,74,40,5.75,ID,1680571910
199,tilichiki,60.4667,166.1,14.31,88,100,11.48,RU,1680571911
200,lashio,22.9333,97.75,76.12,34,37,0.94,MM,1680571911
201,jacksonville,30.3322,-81.6556,77.0,79,20,3.44,US,1680571906
202,lewiston,44.1003,-70.2148,44.38,82,100,4.61,US,1680571911
203,college,64.8569,-147.8028,35.1,54,75,3.44,US,1680571699
204,bonavista,48.6499,-53.1147,29.28,80,12,17.2,CA,1680571912
205,namtsy,62.7161,129.6658,18.52,91,100,3.0,RU,1680571912
206,new norfolk,-42.7826,147.0587,66.92,42,24,5.06,AU,1680571912
207,warwick,41.7001,-71.4162,47.66,76,0,10.36,US,1680571624
208,san pedro,14.35,121.0167,85.32,68,20,8.05,PH,1680571912
209,tupik,54.4253,119.9327,24.08,61,20,12.41,RU,1680571913
210,pevek,69.7008,170.3133,-4.02,80,100,8.97,RU,1680571913
211,pyaozerskiy,65.8333,31.1667,-0.02,100,87,4.07,RU,1680571913
212,sur,22.5667,59.5289,73.13,59,62,3.15,OM,1680571913
213,latung,5.5,120.8833,82.65,71,100,9.6,PH,1680571913
214,puno,-15.8333,-70.0333,44.53,80,100,5.44,PE,1680571914
215,sayyan,15.1718,44.3244,57.69,70,64,1.28,YE,1680571914
216,santa rosa,14.3122,121.1114,86.09,60,36,12.37,PH,1680571914
217,chhapar,27.8167,74.4,74.64,50,38,4.52,IN,1680571915
218,albi,43.9298,2.148,42.46,70,1,1.99,FR,1680571915
219,atar,20.5169,-13.0499,76.86,12,3,6.44,MR,1680571915
220,ponta delgada,37.7333,-25.6667,56.12,82,20,8.05,PT,1680571915
221,kenai,60.5544,-151.2583,32.14,76,100,10.36,US,1680571916
222,batesville,35.7698,-91.641,72.01,82,100,5.75,US,1680571916
223,fortuna,40.5982,-124.1573,47.98,74,38,5.99,US,1680571916
224,grindavik,63.8424,-22.4338,48.15,93,100,27.63,IS,1680571916
225,isabela,6.7085,121.9711,86.05,67,89,3.13,PH,1680571916
226,luderitz,-26.6481,15.1594,62.15,66,0,14.99,NA,1680571687
227,kalabo,-14.97,22.6814,64.17,88,36,5.19,ZM,1680571917
228,gunjur,13.2019,-16.7339,75.27,88,0,8.05,GM,1680571917
229,fort nelson,58.8053,-122.7002,33.39,40,75,8.05,CA,1680571827
230,mutsu,41.2894,141.2169,56.64,44,23,9.06,JP,1680571917
231,camana,-16.6228,-72.7111,75.49,83,74,4.74,PE,1680571917
232,laparay,7.4036,122.8172,81.55,73,56,3.38,PH,1680571918
233,chicama,-7.8447,-79.1469,81.14,74,81,5.03,PE,1680571918
234,raudeberg,61.9875,5.1352,39.87,72,27,12.5,NO,1680571918
235,ormara,25.2088,64.6357,73.92,61,0,4.27,PK,1680571918
236,suez,29.9737,32.5263,67.32,40,0,7.47,EG,1680571918
237,jiuquan,39.7432,98.5174,31.03,73,100,13.33,CN,1680571918
238,lorengau,-2.0226,147.2712,85.69,64,20,5.17,PG,1680571919
239,cimislia,46.52,28.7842,41.14,90,100,12.06,MD,1680571919
240,san carlos de bariloche,-41.1456,-71.3082,47.95,57,0,4.61,AR,1680571737
241,mehndawal,26.9753,83.1117,77.63,37,9,4.99,IN,1680571919
242,verkhnyaya inta,65.9811,60.3094,-0.69,81,2,5.26,RU,1680571919
243,castro,-24.7911,-50.0119,59.05,87,1,3.49,BR,1680571919
244,nantucket,41.2835,-70.0995,46.99,82,0,17.27,US,1680571920
245,santa quiteria do maranhao,-3.5156,-42.5467,72.55,99,100,3.53,BR,1680571921
246,mulki,13.1,74.8,74.48,83,20,0.0,IN,1680571921
247,petropolis,59.8944,30.2642,30.34,89,100,6.71,RU,1680571766
248,lulea,65.5842,22.1547,14.07,85,50,6.91,SE,1680571921
249,kahului,20.8947,-156.47,80.62,69,40,14.97,US,1680571922
250,saint george,37.1041,-113.5841,40.42,72,100,17.27,US,1680571780
251,cabo san lucas,22.8909,-109.9124,85.3,56,100,11.5,MX,1680571679
252,hasaki,35.7333,140.8333,61.2,52,0,10.8,JP,1680571924
253,kununurra,-15.7667,128.7333,87.78,70,40,6.91,AU,1680571925
254,port hardy,50.6996,-127.4199,41.18,87,75,6.91,CA,1680571925
255,takoradi,4.8845,-1.7554,79.68,84,98,5.86,GH,1680571926
256,vysokogornyy,50.1167,139.15,38.07,63,47,18.59,RU,1680571926
257,kyzyl,51.7,94.45,19.17,50,20,2.04,RU,1680571927
258,wundanyi,-3.4019,38.364,61.61,92,89,3.0,KE,1680571927
259,atikokan,48.7555,-91.6216,23.05,89,100,9.91,CA,1680571928
260,cap-aux-meules,47.3821,-61.8597,33.82,64,100,12.66,CA,1680571929
261,taltal,-25.4,-70.4833,69.78,86,42,3.56,CL,1680571863
262,zig,40.127,-92.7663,61.09,39,75,12.66,US,1680571930
263,dubrovnik,42.6481,18.0922,51.44,50,20,18.41,HR,1680571930
264,saskylakh,71.9167,114.0833,-7.46,95,98,13.42,RU,1680571931
265,dhangadhi,28.7079,80.5961,74.43,43,15,1.41,NP,1680571931
266,rio grande,-32.035,-52.0986,66.31,76,100,7.07,BR,1680571932
267,arlit,18.7369,7.3853,77.86,6,99,8.16,NE,1680571932
268,biak,-0.9131,122.8766,81.55,73,100,0.31,ID,1680571932
269,bandarbeyla,9.4942,50.8122,80.82,74,100,10.45,SO,1680571933
270,necochea,-38.5473,-58.7368,60.93,83,57,7.81,AR,1680571933
271,norman wells,65.282,-126.8329,30.24,59,40,5.75,CA,1680571933
272,okhotsk,59.3833,143.3,19.38,89,100,18.63,RU,1680571934
273,biu,10.6129,12.1946,77.02,12,86,5.26,NG,1680571935
274,san quintin,30.4833,-115.95,54.46,63,2,25.46,MX,1680571935
275,tazovskiy,67.4667,78.7,6.75,92,100,24.65,RU,1680571936
276,grand forks,47.9417,-97.4337,19.13,86,100,17.27,US,1680571672
277,acapulco,16.8634,-99.8901,82.22,69,40,8.05,MX,1680571685
278,ostrovnoy,68.0531,39.5131,14.97,89,8,19.73,RU,1680571937
279,lasa,46.6166,10.7002,30.69,75,26,6.6,IT,1680571937
280,kaeo,-35.1,173.7833,71.33,59,1,2.42,NZ,1680571938
281,adre,13.4667,22.2,76.75,16,100,4.81,TD,1680571940
282,port macquarie,-31.4333,152.9167,73.89,68,15,10.54,AU,1680571681
283,hereford,52.0568,-2.7148,37.63,84,5,1.66,GB,1680571867
284,saint-joseph,-21.3667,55.6167,74.46,79,98,2.93,RE,1680571941
285,hofn,64.2539,-15.2082,46.08,94,100,22.12,IS,1680571941
286,north bend,43.4065,-124.2243,48.16,77,0,14.97,US,1680571821
287,banda aceh,5.5577,95.3222,81.73,74,55,1.68,ID,1680571941
288,mabai,23.0128,104.4508,71.13,50,3,8.55,CN,1680571942
289,yulara,-25.2406,130.9889,83.62,35,100,7.18,AU,1680571942
290,yashkul,46.1711,45.3435,51.82,72,58,4.65,RU,1680571943
291,emerald,-23.5333,148.1667,81.34,59,3,5.97,AU,1680571943
292,luchegorsk,46.4764,134.2569,51.01,18,99,12.68,RU,1680571944
293,sol-iletsk,51.1631,54.9918,42.55,57,100,7.85,RU,1680571945
294,high level,58.5169,-117.136,28.51,64,20,5.75,CA,1680571946
295,tabou,4.423,-7.3528,76.89,90,100,2.57,CI,1680571946
296,diego de almagro,-26.3667,-70.05,66.18,66,4,1.57,CL,1680571889
297,tignere,7.3667,12.65,70.7,35,98,0.49,CM,1680571947
298,ahipara,-35.1667,173.1667,67.75,55,0,12.28,NZ,1680571947
299,nalut,30.3333,10.85,51.42,40,0,4.94,LY,1680571947
300,turukhansk,65.8167,87.9833,-12.93,91,27,6.71,RU,1680571948
301,kalmunai,7.4167,81.8167,79.65,80,5,6.85,LK,1680571949
302,arraial do cabo,-22.9661,-42.0278,71.56,83,75,2.3,BR,1680571934
303,irbeyskoye,55.6428,95.4522,31.23,77,100,18.88,RU,1680571949
304,iquique,-20.2208,-70.1431,77.04,84,6,1.3,CL,1680571839
305,faanui,-16.4833,-151.75,82.62,72,99,8.28,PF,1680571950
306,tocopilla,-22.092,-70.1979,73.15,83,0,4.74,CL,1680571950
307,hokitika,-42.7167,170.9667,59.72,70,14,6.11,NZ,1680571951
308,richards bay,-28.783,32.0377,72.43,75,100,14.92,ZA,1680571951
309,manaure,11.7751,-72.4445,78.8,77,1,20.47,CO,1680571952
310,sao felix do xingu,-6.6447,-51.995,72.3,95,98,0.89,BR,1680571949
311,itarema,-2.9248,-39.9167,75.22,88,100,0.4,BR,1680571952
312,rockland,41.1668,-74.0496,56.25,71,45,8.25,US,1680571811
313,marawi,7.9986,124.2928,78.21,56,76,4.83,PH,1680571953
314,londonderry,54.9981,-7.3093,44.19,84,100,10.74,GB,1680571953
315,ankazoabo,-22.2833,44.5167,69.31,89,0,1.66,MG,1680571953
316,monrovia,6.3005,-10.7969,74.97,83,67,1.23,LR,1680571954
317,tezu,27.9167,96.1667,69.89,56,99,0.67,IN,1680571955
318,wanning,18.8003,110.3967,81.68,76,48,15.82,CN,1680571955
319,boguchany,58.3814,97.4531,32.18,94,100,7.25,RU,1680571956
320,cockburn town,21.4612,-71.1419,77.5,75,0,20.56,TC,1680571957
321,salinopolis,-0.6136,-47.3561,75.56,91,100,5.97,BR,1680571958
322,kaitangata,-46.2817,169.8464,64.92,57,41,6.38,NZ,1680571958
323,marrakesh,31.6315,-8.0083,60.87,39,0,5.75,MA,1680571958
324,yokadouma,3.5167,15.05,68.9,96,100,1.72,CM,1680571960
325,palmer,42.1584,-72.3287,48.81,62,75,9.22,US,1680571960
326,brigantine,39.4101,-74.3646,53.01,86,0,9.22,US,1680571961
327,longfeng,46.55,125.1167,40.48,14,98,13.49,CN,1680571961
328,puerto colombia,10.9878,-74.9547,78.89,87,15,32.64,CO,1680571963
329,barranca,-10.75,-77.7667,76.51,79,100,8.08,PE,1680571963
330,mishkino,55.3389,63.9175,35.24,75,19,4.97,RU,1680571963
331,dali,25.7,100.1833,57.79,50,24,5.35,CN,1680571964
332,kruisfontein,-34.0033,24.7314,61.88,84,75,8.99,ZA,1680571964
333,port blair,11.6667,92.75,81.66,68,100,5.14,IN,1680571964
334,carinhanha,-14.3047,-43.765,72.23,74,88,4.32,BR,1680571964
335,borger,52.9233,6.7931,35.78,83,99,5.95,NL,1680571965
336,yurginskoye,56.8189,67.3921,33.57,78,60,3.98,RU,1680571965
337,westport,41.1415,-73.3579,50.74,76,0,12.66,US,1680571845
338,snyder,32.7179,-100.9176,82.74,3,0,8.05,US,1680571965
339,pullman,46.7313,-117.1796,39.43,91,100,13.0,US,1680571965
340,chalmette,29.9427,-89.9634,79.0,86,20,13.8,US,1680571966
341,kayerkan,69.3497,87.7602,-15.48,75,100,6.91,RU,1680571966
342,victoria,22.2855,114.1577,77.43,93,33,1.01,HK,1680571815
343,vila velha,-20.3297,-40.2925,76.95,77,75,5.75,BR,1680571966
344,sa kaeo,13.75,102.3333,87.8,55,8,10.16,TH,1680571966
345,waw,7.7029,27.9953,77.72,17,28,1.88,SS,1680571966
346,rundu,-17.9333,19.7667,65.07,64,71,0.76,NA,1680571967
347,thompson,55.7435,-97.8558,14.16,37,40,3.44,CA,1680571967
348,aloleng,16.1307,119.7824,83.95,65,17,6.11,PH,1680571967
349,korla,41.7597,86.1469,33.01,16,0,11.14,CN,1680571967
350,guerrero negro,27.9769,-114.0611,57.07,71,3,23.85,MX,1680571968
351,mbuji-mayi,-6.15,23.6,69.37,95,100,1.05,CD,1680571968
352,yining,29.0361,114.5636,66.16,92,100,0.94,CN,1680571968
353,suifenhe,44.4,131.1667,53.87,26,100,4.29,CN,1680571968
354,harper,4.375,-7.7169,77.34,89,100,2.91,LR,1680571969
355,batagay,67.6333,134.6333,14.07,81,100,1.66,RU,1680571969
356,andenes,69.3143,16.1194,37.38,75,100,13.8,NO,1680571969
357,bonthe,7.5264,-12.505,78.37,87,35,4.34,SL,1680571969
358,forio,40.7342,13.8646,54.43,66,99,11.01,IT,1680571970
359,neiafu,-18.65,-173.9833,84.88,74,20,9.22,TO,1680571970
360,oranjemund,-28.55,16.4333,58.35,89,0,9.98,NA,1680571687
361,sept-iles,50.2001,-66.3821,28.06,90,100,2.3,CA,1680571863
362,medea,36.2642,2.7539,40.68,67,100,3.69,DZ,1680571970
363,biggar,55.6167,-3.5167,41.56,85,100,5.32,GB,1680571970
364,te anau,-45.4167,167.7167,64.76,48,25,2.3,NZ,1680571970
365,ginda,30.6945,78.4932,51.24,46,54,6.55,IN,1680571971
366,samarai,-10.6167,150.6667,83.68,75,100,8.34,PG,1680571971
367,hongjiang,27.11,109.9956,74.55,78,40,1.21,CN,1680571971
368,ndjole,-0.1783,10.7649,74.73,99,100,1.3,GA,1680571971
369,kaohsiung,22.6163,120.3133,80.55,67,40,3.0,TW,1680571971
370,vao,-22.6667,167.4833,78.51,81,15,8.05,NC,1680571971
371,khvatovka,52.3524,46.5628,45.72,59,100,2.89,RU,1680571972
372,lyubymivka,46.8106,33.5686,43.16,92,66,5.23,UA,1680571972
373,ternate,0.8,127.4,83.97,69,98,3.58,ID,1680571972
374,jadu,31.953,12.0261,49.6,47,6,5.86,LY,1680571972
375,dharmavaram,14.4333,77.7167,83.08,48,71,4.9,IN,1680571972
376,henties bay,-22.116,14.2845,60.94,88,0,8.46,NA,1680571973
377,basco,20.4487,121.9702,75.72,64,6,18.9,PH,1680571973
378,luau,-10.7073,22.2247,62.4,97,100,2.06,AO,1680571974
379,trofors,65.5333,13.4063,31.87,98,65,5.39,NO,1680571974
380,beloha,-25.1667,45.05,69.75,94,0,5.97,MG,1680571974
381,coos bay,43.3665,-124.2179,48.24,78,0,14.97,US,1680571974
382,blagoyevo,63.3667,47.9167,15.48,89,95,6.76,RU,1680571974
383,tomatlan,19.9333,-105.25,68.94,73,82,2.51,MX,1680571974
384,yumen,40.2833,97.2,31.39,29,100,19.04,CN,1680571975
385,itoman,26.1247,127.6694,69.82,73,75,18.41,JP,1680571975
386,saint-pierre,-21.3393,55.4781,75.56,73,0,4.61,RE,1680571975
387,umm kaddadah,13.6017,26.6876,75.36,11,86,10.4,SD,1680571975
388,padang,-0.9492,100.3543,78.85,71,75,1.88,ID,1680571975
389,indramayu,-6.3264,108.32,81.18,75,100,3.8,ID,1680571975
390,meulaboh,4.1363,96.1285,80.29,76,90,2.28,ID,1680571976
391,melfort,52.8667,-104.6177,10.53,67,100,3.44,CA,1680571976
392,rocha,-34.4833,-54.3333,61.34,90,100,1.05,UY,1680571976
393,egvekinot,66.3167,-179.1667,-2.24,76,15,3.22,RU,1680571977
394,bay roberts,47.5999,-53.2648,31.33,80,11,5.99,CA,1680571977
395,corner brook,48.9667,-57.9484,28.56,89,99,7.43,CA,1680571977
396,kendari,-3.945,122.4989,84.74,68,100,2.64,ID,1680571977
397,xiamen,24.4798,118.0819,68.05,83,75,2.24,CN,1680571977
398,hualmay,-11.0964,-77.6139,76.96,80,93,9.64,PE,1680571977
399,sao joao da barra,-21.6403,-41.0511,72.46,88,90,8.03,BR,1680571797
400,buin,-33.7333,-70.75,71.74,39,100,2.73,CL,1680571978
401,sabaudia,41.3003,13.0282,52.47,73,100,5.44,IT,1680571979
402,zatoka,46.0725,30.4654,45.81,88,100,12.91,UA,1680571979
403,luang prabang,19.8856,102.1347,91.27,25,2,2.8,LA,1680571979
404,lavrentiya,65.5833,-171.0,4.12,82,77,7.29,RU,1680571979
405,la gomera,14.0833,-91.05,82.69,65,48,6.31,GT,1680571980
406,puerto leguizamo,-0.1934,-74.7819,72.82,93,77,1.54,CO,1680571980
407,kresttsy,58.2452,32.5165,30.58,97,100,4.43,RU,1680571980
408,baykit,61.67,96.37,22.39,88,100,10.09,RU,1680571980
409,alenquer,-1.9417,-54.7383,73.27,95,81,2.77,BR,1680571980
410,cap malheureux,-19.9842,57.6142,74.46,80,89,1.99,MU,1680571981
411,nabire,-3.3667,135.4833,85.46,64,100,2.24,ID,1680571981
412,riyadh,24.6877,46.7219,57.34,22,89,1.43,SA,1680571981
413,filadelfia,39.9523,-75.1638,57.69,71,40,5.75,US,1680571917
414,burnie,-41.0667,145.9167,68.94,52,100,6.8,AU,1680571963
415,moche,-8.1711,-79.0092,82.58,74,40,9.22,PE,1680571982
416,katangli,51.7102,143.2326,40.73,88,100,19.08,RU,1680571983
417,harrismith,-28.2728,29.1295,49.57,96,68,4.56,ZA,1680571983
418,dovolnoye,54.4958,79.6671,29.66,78,61,7.31,RU,1680571984
419,tombouctou,20.0,-3.0,73.67,8,0,1.57,ML,1680571985
420,sao gabriel da cachoeira,-0.1303,-67.0892,73.29,96,95,1.54,BR,1680571985
421,port hedland,-20.3167,118.5667,87.85,66,45,6.91,AU,1680571986
422,montague,42.5356,-72.5351,50.54,65,84,1.01,US,1680571986
423,kota kinabalu,5.9749,116.0724,84.18,74,20,6.91,MY,1680571987
424,san bartolome de tirajana,27.9248,-15.5733,56.32,79,20,23.02,ES,1680571987
425,vardo,70.3705,31.1107,31.53,81,100,19.46,NO,1680571988
426,komsomolskiy,40.4272,71.7189,56.12,71,100,6.91,UZ,1680571988
427,kampot,10.6167,104.1833,84.25,59,9,3.31,KH,1680571988
428,sakakah,29.9697,40.2064,58.57,22,0,7.23,SA,1680571989
429,sandakan,5.8402,118.1179,83.88,79,40,5.75,MY,1680571989
430,saint-leu,-21.15,55.2833,74.95,89,91,3.98,RE,1680571990
431,bolshaya sosnova,57.6713,54.6029,36.19,87,39,3.98,RU,1680571990
432,yamethin,20.4333,96.15,82.85,47,3,5.79,MM,1680571990
433,celestun,20.8667,-90.4,79.72,75,15,12.3,MX,1680571990
434,mayo,38.8876,-76.5119,64.11,79,0,17.27,US,1680571991
435,klaksvik,62.2266,-6.589,45.52,92,100,26.04,FO,1680571992
436,ancud,-41.8697,-73.8203,52.41,93,68,3.96,CL,1680571992
437,shubarkuduk,49.1447,56.4872,42.57,50,86,10.8,KZ,1680571992
438,bordighera,43.7806,7.6645,55.45,74,97,5.99,IT,1680571993
439,mantua,45.1667,10.7833,45.64,69,66,4.0,IT,1680571994
440,valparaiso,-33.0393,-71.6273,66.0,58,0,0.0,CL,1680571957
441,irbit,57.6705,63.071,37.26,84,87,3.85,RU,1680571994
442,opuwo,-18.0607,13.84,69.26,48,90,4.94,NA,1680571995
443,rock springs,41.5875,-109.2029,24.04,90,100,23.02,US,1680571934
444,smithers,54.7804,-127.1743,39.52,52,20,11.5,CA,1680571995
445,vostok,46.4856,135.8833,46.0,38,82,12.71,RU,1680571996
446,contamana,-7.3333,-75.0167,72.64,96,98,1.21,PE,1680571996
447,racale,39.9631,18.0938,51.67,91,100,21.45,IT,1680571997
448,ardabil,38.2498,48.2933,36.95,87,40,4.61,IR,1680571997
449,mengcheng,33.2579,116.5655,54.32,96,100,12.17,CN,1680571997
450,chabahar,25.2919,60.643,73.11,59,0,15.68,IR,1680571998
451,salta,-24.7859,-65.4117,68.59,91,75,3.44,AR,1680571999
452,yazoo city,32.8551,-90.4056,72.91,85,6,8.41,US,1680571999
453,makakilo city,21.3469,-158.0858,82.72,62,75,16.11,US,1680571999
454,morden,49.1919,-98.1014,19.02,86,100,5.75,CA,1680572000
455,kapoeta,4.7717,33.5903,79.2,51,100,6.38,SS,1680572000
456,nelson bay,-32.7167,152.15,71.65,84,100,5.99,AU,1680572001
457,beyneu,45.3167,55.2,49.86,58,100,9.48,KZ,1680572001
458,mayskiy,47.6931,40.1025,47.61,97,42,5.26,RU,1680572002
459,arman,59.7,150.1667,26.02,75,47,4.0,RU,1680572002
460,arroyo,41.6096,-4.7969,47.1,74,0,9.22,ES,1680572003
461,gubkinskiy,64.434,76.5026,-6.63,88,5,9.35,RU,1680572003
462,betioky,-23.7167,44.3833,69.71,90,0,2.55,MG,1680572003
463,anloga,5.7947,0.8973,81.91,75,100,8.99,GH,1680572004
464,katsuura,35.1333,140.3,58.89,51,0,10.87,JP,1680572005
465,at-bashi,41.1702,75.8106,31.5,39,86,4.61,KG,1680572006
466,birobidzhan,48.8,132.95,41.68,24,74,16.51,RU,1680572006
467,amahai,-3.3333,128.9167,82.8,76,80,3.33,ID,1680572006
468,kushiro,42.975,144.3747,43.75,70,0,11.5,JP,1680572007
469,ambilobe,-13.2,49.05,71.78,96,11,3.22,MG,1680572007
470,coahuayana,18.7333,-103.6833,72.57,88,3,1.68,MX,1680572008
471,pacific grove,36.6177,-121.9166,53.55,66,0,23.0,US,1680572008
472,ust-nera,64.5667,143.2,8.89,91,100,6.96,RU,1680572009
473,tynda,55.1667,124.7167,22.62,75,99,13.44,RU,1680572009
474,dongsheng,39.8161,109.9776,32.31,100,100,13.78,CN,1680572009
475,lompoc,34.6391,-120.4579,53.85,64,0,29.93,US,1680572010
476,mandera,3.9366,41.867,80.82,66,100,4.85,KE,1680572010
477,gat,31.61,34.7642,72.39,28,0,9.08,IL,1680571743
478,menongue,-14.6585,17.691,60.15,92,78,2.42,AO,1680572011
479,ongandjera,-17.8833,15.0667,75.22,50,99,0.87,NA,1680572011
480,jalu,29.0331,21.5482,59.04,46,0,6.67,LY,1680572012
481,walvis bay,-22.9575,14.5053,59.95,82,0,5.75,NA,1680572012
482,hamilton,39.1834,-84.5333,66.83,61,0,16.11,US,1680571860
483,broome,42.2506,-75.833,51.89,94,100,3.29,US,1680571969
484,guymon,36.6828,-101.4816,78.8,6,0,21.85,US,1680572013
485,talnakh,69.4865,88.3972,-14.8,96,100,7.54,RU,1680572014
486,inhambane,-23.865,35.3833,70.95,86,0,4.47,MZ,1680572014
487,ferkessedougou,9.6,-5.2,78.33,60,85,4.03,CI,1680572014
488,richmond,37.5538,-77.4603,66.18,55,100,8.05,US,1680571771
489,lingao,19.9103,109.6859,81.9,70,0,8.86,CN,1680572015
490,namibe,-15.1961,12.1522,74.77,78,35,6.4,AO,1680572015
491,qinggang,46.6833,126.0833,39.58,16,88,13.35,CN,1680572015
492,kendal,54.3268,-2.7476,40.6,85,34,3.49,GB,1680572016
493,kupang,-10.1667,123.5833,86.58,79,20,4.61,ID,1680572017
494,neyvo-shaytanskiy,57.7286,61.2496,36.12,89,54,6.31,RU,1680572017
495,elizabeth city,36.2946,-76.2511,64.42,77,0,10.36,US,1680572018
496,tiznit,29.5833,-9.5,57.06,78,3,5.84,MA,1680572019
497,berlevag,70.8578,29.0864,33.8,69,100,24.16,NO,1680572020
498,novobataysk,46.8981,39.7819,50.81,95,85,6.22,RU,1680572020
499,zeya,53.75,127.2667,25.43,65,89,11.74,RU,1680572020
500,miranda,3.2499,-76.2281,75.33,91,100,5.86,CO,1680571825
501,thinadhoo,0.5333,72.9333,81.59,70,100,4.43,MV,1680572021
502,kavaratti,10.5669,72.642,81.21,71,100,8.08,IN,1680572021
503,huilong,31.8111,121.655,59.94,87,100,32.46,CN,1680572021
504,matagami,49.7502,-77.6328,17.71,73,100,16.11,CA,1680572022
505,kaabong,3.4836,34.1492,65.21,76,100,3.67,UG,1680572022
506,pasighat,28.0667,95.3333,63.86,83,100,2.48,IN,1680572022
507,gamba,-2.65,10.0,76.42,86,100,3.33,GA,1680572022
508,kysyl-syr,63.8986,122.7617,23.94,92,100,4.9,RU,1680572023
509,pauini,-7.7136,-66.9764,72.77,91,100,2.37,BR,1680572023
510,rio gallegos,-51.6226,-69.2181,50.05,57,0,13.8,AR,1680572023
511,icod de los vinos,28.3724,-16.7119,66.04,77,77,13.33,ES,1680572023
512,quelimane,-17.8786,36.8883,68.5,93,28,2.28,MZ,1680572023
513,kailua,21.4022,-157.7394,84.18,70,40,10.36,US,1680571865
514,aguimes,27.9054,-15.4461,63.66,68,20,23.02,ES,1680572024
515,srednekolymsk,67.45,153.6833,15.33,66,10,5.66,RU,1680572024
516,oume,35.7839,139.2431,62.01,41,0,5.88,JP,1680572024
517,maniitsoq,65.4167,-52.9,26.35,61,16,8.19,GL,1680572024
518,pitimbu,-7.4706,-34.8086,79.39,80,91,8.75,BR,1680572024
519,baculin,7.4525,126.5842,84.43,61,100,9.28,PH,1680572024
520,lata,40.1629,-8.3327,57.81,94,100,3.2,PT,1680572025
521,adrar,20.5022,-10.0711,74.91,10,0,12.19,MR,1680572025
522,axim,4.8699,-2.2405,79.39,86,97,6.42,GH,1680572025
523,otradnoye,59.7775,30.8181,30.25,97,100,6.62,RU,1680572025
524,lethem,3.3803,-59.7968,82.71,47,45,13.24,GY,1680572025
525,vilyuysk,63.7553,121.6247,23.54,92,100,6.17,RU,1680572026
526,moindou,-21.6924,165.677,84.83,66,73,5.37,NC,1680572026
527,lock haven,41.137,-77.4469,63.09,82,99,0.87,US,1680572027
528,bac lieu,9.285,105.7244,86.2,59,44,8.68,VN,1680572027
529,sterling,39.0062,-77.4286,66.49,55,0,9.22,US,1680572027
530,farafangana,-22.8167,47.8333,72.79,92,10,3.06,MG,1680572027
531,fountain hills,33.6117,-111.7174,74.84,21,0,23.02,US,1680571736
532,hobyo,5.3505,48.5268,82.38,67,10,11.3,SO,1680572028
533,gorontalo,0.5412,123.0595,87.3,62,91,2.82,ID,1680572028
534,denpasar,-8.65,115.2167,82.06,94,40,11.5,ID,1680571927
535,vanavara,60.34,102.2797,23.29,79,10,10.8,RU,1680572028
536,yamada,39.4667,141.95,57.18,46,2,6.04,JP,1680572028
537,ardahan,41.1087,42.7022,32.88,93,18,2.46,TR,1680572029
538,goderich,43.7501,-81.7165,48.52,76,100,17.27,CA,1680572029
539,bowen,-20.0167,148.2333,80.76,76,22,7.36,AU,1680572029
540,phangnga,8.4509,98.5298,84.24,63,100,2.42,TH,1680572029
541,helong,42.5397,128.9972,58.84,40,100,6.26,CN,1680572029
542,xining,36.6167,101.7667,37.51,66,100,3.31,CN,1680572030
543,rock sound,24.9,-76.2,76.93,72,13,10.87,BS,1680571833
544,malaya purga,56.5567,53.0043,41.5,77,64,5.61,RU,1680572030
545,conceicao da barra,-18.5933,-39.7322,72.16,79,33,5.26,BR,1680572030
546,krasnoselkup,65.7,82.4667,-9.38,91,75,10.67,RU,1680572030
547,nome,64.5011,-165.4064,16.11,79,100,6.91,US,1680572001
548,arcachon,44.5875,-1.0519,43.41,87,0,4.61,FR,1680572031
549,mansa,29.9833,75.3833,65.75,67,5,3.6,IN,1680572031
550,carutapera,-1.195,-46.02,73.92,94,100,3.04,BR,1680571916
551,arrecife,28.963,-13.5477,64.38,72,0,19.57,ES,1680572031
552,izhma,65.0083,53.9113,-7.35,100,25,3.11,RU,1680572031
553,aguadilla,18.4275,-67.1541,77.11,84,75,6.91,PR,1680572032
554,kasongo,-4.45,26.6667,67.01,97,99,1.66,CD,1680572032
555,tual,-5.6667,132.75,80.6,77,100,8.14,ID,1680572032
556,la paz,-16.5,-68.15,51.78,83,75,10.36,BO,1680571750
557,fare,-16.7,-151.0167,82.13,73,98,7.96,PF,1680572032
558,sao jose da coroa grande,-8.8978,-35.1478,77.81,81,48,4.45,BR,1680572032
559,cedar rapids,42.0083,-91.6441,52.0,51,100,17.27,US,1680572028
560,talcahuano,-36.7167,-73.1167,58.68,63,0,9.22,CL,1680572033
561,codrington,-38.2667,141.9667,65.79,57,100,6.04,AU,1680572033
562,yaan,7.3833,8.5667,80.51,69,97,9.35,NG,1680572034
563,shubarshi,48.5872,57.1869,43.25,46,100,10.2,KZ,1680572034
564,yerbogachen,61.2767,108.0108,23.49,87,100,16.64,RU,1680572034
565,souillac,-20.5167,57.5167,75.58,94,75,6.91,MU,1680572034
566,yibin,28.7667,104.6238,66.76,48,67,5.17,CN,1680572034
567,marabba,12.35,32.1833,80.1,14,28,8.48,SD,1680572035
568,garowe,8.4054,48.4845,75.06,76,13,9.84,SO,1680572035
569,belle fourche,44.6714,-103.8522,37.33,53,100,9.48,US,1680572035
570,usinsk,65.9939,57.5281,-3.89,99,9,3.38,RU,1680572035
571,bakchar,57.0186,82.0711,32.34,90,100,3.91,RU,1680572035
572,oranjestad,12.524,-70.027,80.55,85,20,23.02,AW,1680572036
573,owando,-0.4819,15.8999,70.68,98,100,2.46,CG,1680572036
574,christchurch,-43.5333,172.6333,69.42,60,7,3.44,NZ,1680571961
575,solnechnyy,50.7214,136.6319,36.0,77,100,5.3,RU,1680572036
576,karasuk,53.7377,78.0403,37.13,55,5,6.8,RU,1680572036
577,birin,26.8865,88.0718,61.3,52,0,2.66,NP,1680572037
578,chapais,49.7834,-74.8492,22.78,94,96,10.33,CA,1680572037
579,fasa,28.9383,53.6482,36.64,70,0,4.61,IR,1680572037
580,khazar,41.9974,48.3332,46.26,83,53,2.21,RU,1680572037
